City_ID,City,Cloudiness,Country,Date,Humidity,Lat,Lng,Max Temp,Wind Speed
0,narsaq,32,GL,1524711000,63,60.91,-46.05,30.2,1.61
1,saint george,0,GR,1524711000,76,39.45,22.34,55.4,5.82
2,saint-philippe,90,CA,1524710700,93,45.36,-73.48,53.6,8.05
3,ushuaia,75,AR,1524708000,100,-54.81,-68.31,35.6,6.93
4,hithadhoo,44,MV,1524712720,100,-0.6,73.08,83.49,11.23
5,bambous virieux,40,MU,1524708000,83,-20.34,57.76,75.2,6.93
6,rikitea,76,PF,1524712720,100,-23.12,-134.97,77.46,6.98
7,bilma,0,NE,1524712720,21,18.69,12.92,68.1,4.52
8,jamestown,8,AU,1524712720,100,-33.21,138.6,61.44,5.97
9,kaitangata,0,NZ,1524712720,81,-46.28,169.85,63.6,4.41
10,kuito,80,AO,1524712721,70,-12.38,16.94,60.09,2.84
11,mazagao,20,BR,1524711600,100,-0.12,-51.29,77.0,2.24
12,bilibino,0,RU,1524712721,63,68.06,166.44,32.64,3.74
13,petropavlovsk-kamchatskiy,0,RU,1524709800,26,53.05,158.65,48.2,8.95
14,vestmannaeyjar,92,IS,1524712721,100,63.44,-20.27,41.01,6.42
15,east london,20,ZA,1524712721,89,-33.02,27.91,77.37,16.26
16,butaritari,80,KI,1524712722,100,3.07,172.79,83.04,13.35
17,new norfolk,20,AU,1524709980,38,-42.78,147.06,60.8,20.8
18,port alfred,36,ZA,1524712722,90,-33.59,26.89,69.63,18.39
19,provideniya,90,RU,1524709800,74,64.42,-173.23,33.8,8.95
20,dikson,80,RU,1524712722,95,73.51,80.55,18.87,16.71
21,torbay,90,CA,1524708000,60,47.66,-52.73,42.8,19.46
22,hermanus,76,ZA,1524712722,91,-34.42,19.24,54.33,11.34
23,albany,90,US,1524710760,87,42.65,-73.75,57.2,2.17
24,punta arenas,90,CL,1524711600,87,-53.16,-70.91,42.8,16.11
25,atuona,56,PF,1524712723,100,-9.8,-139.03,81.69,18.72
26,aklavik,90,CA,1524710280,80,68.22,-135.01,39.2,4.7
27,portland,20,US,1524707760,21,45.52,-122.67,82.4,4.7
28,bredasdorp,24,ZA,1524708000,87,-34.53,20.04,50.0,2.24
29,chuy,8,UY,1524712672,97,-33.69,-53.46,65.04,2.95
30,vaini,8,IN,1524712723,70,15.34,74.49,76.29,1.72
31,nemuro,75,JP,1524708000,57,43.32,145.57,51.8,9.17
32,norman wells,40,CA,1524708000,49,65.28,-126.83,48.2,11.41
33,lidice,20,CZ,1524711600,76,50.14,14.19,53.6,12.75
34,khrisokhorafa,0,GR,1524712724,79,41.18,23.23,51.09,2.95
35,bluff,0,AU,1524712724,34,-23.58,149.07,85.02,7.99
36,airai,0,TL,1524712724,45,-8.93,125.41,85.29,1.61
37,bukachacha,24,RU,1524712724,34,52.99,116.91,47.22,4.18
38,shaunavon,0,CA,1524712725,52,49.65,-108.41,44.34,6.42
39,rochegda,80,RU,1524712725,83,62.67,43.41,38.04,7.87
40,makakilo city,1,US,1524711420,54,21.35,-158.09,80.6,12.75
41,upernavik,88,GL,1524712725,100,72.79,-56.15,15.63,6.64
42,hilo,20,US,1524711360,69,19.71,-155.08,78.8,10.29
43,batticaloa,44,LK,1524712725,100,7.71,81.69,81.6,1.72
44,ponta do sol,68,BR,1524712725,64,-20.63,-46.0,68.64,5.19
45,yellowknife,75,CA,1524710940,60,62.45,-114.38,39.2,3.36
46,qaanaaq,68,GL,1524712726,94,77.48,-69.36,12.66,5.41
47,dingle,44,PH,1524712726,95,11.0,122.67,81.87,7.31
48,mandalgovi,0,MN,1524712726,72,45.76,106.27,55.86,6.53
49,salta,90,AR,1524711600,93,-24.79,-65.41,69.8,3.36
50,ostrovnoy,48,RU,1524712726,93,68.05,39.51,32.55,10.0
51,naze,40,NG,1524708000,94,5.43,7.07,75.2,3.62
52,ndola,0,ZM,1524712727,61,-12.97,28.64,53.07,7.76
53,mar del plata,44,AR,1524712727,41,-46.43,-67.52,62.34,15.59
54,erenhot,0,CN,1524712727,70,43.65,111.97,60.99,12.68
55,kutum,0,SD,1524712727,22,14.2,24.66,66.21,10.78
56,vestmanna,68,FO,1524711000,100,62.16,-7.17,39.2,11.41
57,kodiak,90,US,1524707580,66,39.95,-94.76,51.8,3.36
58,ilulissat,88,GL,1524711000,67,69.22,-51.1,17.6,8.05
59,souillac,0,FR,1524711600,93,45.6,-0.6,44.6,6.42
60,mataura,0,NZ,1524712728,85,-46.19,168.86,65.22,7.2
61,padang,0,ID,1524712728,100,-0.92,100.36,83.94,7.99
62,cidreira,68,BR,1524712728,93,-30.17,-50.22,70.08,2.62
63,camacha,75,PT,1524711600,82,33.08,-16.33,60.8,12.75
64,itaituba,8,BR,1524712729,97,-4.26,-55.99,73.41,2.28
65,yeppoon,0,AU,1524709800,23,-23.13,150.74,87.8,12.75
66,springbok,92,ZA,1524712729,93,-29.67,17.88,50.37,12.46
67,fairbanks,75,US,1524711480,45,64.84,-147.72,48.2,12.75
68,baculin,20,PH,1524712729,87,7.45,126.58,83.67,5.19
69,nome,75,US,1524710100,69,30.04,-94.42,73.4,5.82
70,arraial do cabo,0,BR,1524712729,95,-22.97,-42.02,74.31,8.88
71,itarema,68,BR,1524712730,92,-2.92,-39.92,77.19,9.66
72,san quintin,20,PH,1524708000,70,17.54,120.52,86.0,6.93
73,beira,20,ES,1524711600,87,43.2,-8.36,48.2,3.36
74,plaine magnien,40,MU,1524708000,83,-20.43,57.65,75.2,6.93
75,barrow,20,AR,1524712730,94,-38.31,-60.23,61.62,10.45
76,brekstad,75,NO,1524711000,93,63.69,9.67,39.2,9.17
77,safranbolu,0,TR,1524712730,81,41.25,32.69,48.12,2.84
78,eydhafushi,68,MV,1524712731,99,5.1,73.07,85.65,8.43
79,zhumadian,20,CN,1524712731,91,33.01,114.02,69.72,11.01
80,timbiqui,32,CO,1524712731,100,2.77,-77.67,73.14,2.95
81,tuktoyaktuk,90,CA,1524708000,95,69.44,-133.03,32.0,5.82
82,pimentel,20,BR,1524712731,97,-3.7,-45.5,71.25,2.39
83,jutai,76,BR,1524712731,100,-1.71,-47.89,74.04,2.17
84,katsuura,75,JP,1524708000,62,33.93,134.5,59.0,4.7
85,lompoc,1,US,1524711480,81,34.64,-120.46,57.2,8.05
86,bethel,20,US,1524711180,70,60.79,-161.76,42.8,20.8
87,sartell,1,US,1524710160,42,45.62,-94.21,48.2,3.36
88,hamilton,90,BM,1524711300,83,32.3,-64.78,69.8,23.04
89,colac,92,AU,1524712733,74,-38.34,143.59,59.19,5.97
90,saldanha,0,PT,1524712733,68,41.42,-6.55,53.97,10.45
91,port elizabeth,90,US,1524711840,82,39.31,-74.98,62.6,9.17
92,oyama,75,JP,1524708000,49,36.31,139.8,68.0,4.7
93,saskylakh,8,RU,1524712733,94,71.97,114.09,26.07,11.45
94,ribeira grande,92,PT,1524712733,97,38.52,-28.7,63.24,12.91
95,seydi,0,NE,1524712733,49,13.34,7.75,71.7,8.55
96,skibbereen,0,IE,1524711600,93,51.55,-9.27,37.4,8.05
97,srednekolymsk,0,RU,1524712734,68,67.46,153.71,27.06,8.66
98,avarua,75,CK,1524711600,83,-21.21,-159.78,77.0,8.05
99,nurota,0,UZ,1524709800,66,40.56,65.69,55.4,4.7
100,nikolskoye,90,RU,1524709800,93,59.7,30.79,42.8,2.24
101,dalvik,76,SE,1524711000,86,57.79,14.13,41.0,10.29
102,hobart,20,AU,1524709980,38,-42.88,147.33,60.8,20.8
103,arlit,0,NE,1524712734,18,18.74,7.39,69.81,3.29
104,bazarnyye mataki,92,RU,1524712735,91,54.9,49.93,38.04,17.05
105,busselton,92,AU,1524712735,100,-33.64,115.35,65.13,3.74
106,luwuk,92,ID,1524712735,100,-0.95,122.79,72.6,2.51
107,cape town,75,ZA,1524709800,93,-33.93,18.42,53.6,17.22
108,nadvoitsy,48,RU,1524712735,90,63.89,34.27,30.84,3.62
109,mount gambier,56,AU,1524712735,77,-37.83,140.78,60.9,6.2
110,lavrentiya,88,RU,1524712735,96,65.58,-170.99,30.84,22.64
111,wanning,75,AT,1524711000,76,48.64,13.53,55.4,5.82
112,porbandar,40,IN,1524709800,74,21.64,69.61,78.8,4.7
113,sitka,0,US,1524712736,67,37.17,-99.65,48.57,5.86
114,martapura,68,ID,1524712736,97,-3.41,114.85,82.77,3.96
115,puerto ayora,8,EC,1524712736,99,-0.74,-90.35,76.56,7.43
116,zheleznodorozhnyy,0,RU,1524709800,93,55.75,38.0,44.6,6.71
117,rocha,48,UY,1524712736,93,-34.48,-54.34,60.45,2.62
118,kapaa,40,US,1524711360,73,22.08,-159.32,78.8,18.34
119,la plata,12,AR,1524711600,94,-34.92,-57.95,73.4,5.82
120,bondo,76,CD,1524712737,99,3.81,23.69,70.17,2.62
121,bathsheba,40,BB,1524711600,78,13.22,-59.52,78.8,18.34
122,kokologo,8,BF,1524712737,63,12.19,-1.88,81.42,11.12
123,fortuna,0,ES,1524711600,59,38.18,-1.13,66.2,5.82
124,hailar,0,CN,1524712738,40,49.2,119.7,50.46,11.01
125,luanda,75,AO,1524708000,88,-8.83,13.24,78.8,3.36
126,kirakira,64,SB,1524712738,100,-10.46,161.92,84.12,7.87
127,kalulushi,0,ZM,1524712738,64,-12.84,28.09,53.43,6.53
128,thinadhoo,8,MV,1524712738,100,0.53,72.93,83.76,10.78
129,lazaro cardenas,40,MX,1524710460,27,28.39,-105.62,73.4,11.41
130,carmen,8,PH,1524712739,71,7.2,124.8,87.18,4.29
131,mogadishu,68,SO,1524712477,100,2.04,45.34,82.95,14.03
132,tura,92,IN,1524712739,93,25.52,90.21,70.53,5.75
133,kudahuvadhoo,56,MV,1524712739,100,2.67,72.89,84.39,11.01
134,kavieng,48,PG,1524712739,100,-2.57,150.8,85.83,9.66
135,glendive,1,US,1524711300,37,47.11,-104.71,57.2,11.41
136,carnarvon,8,ZA,1524712740,68,-30.97,22.13,48.75,16.82
137,beisfjord,88,NO,1524711000,93,68.38,17.6,35.6,2.24
138,guerrero negro,44,MX,1524712740,70,27.97,-114.04,62.88,8.32
139,ahuimanu,20,US,1524711420,69,21.44,-157.84,80.6,10.29
140,cabo san lucas,5,MX,1524711060,19,22.89,-109.91,84.2,11.23
141,longyearbyen,20,NO,1524711000,60,78.22,15.63,8.6,16.11
142,invermere,0,CA,1524712741,57,50.51,-116.03,39.93,1.39
143,yulara,90,AU,1524711600,43,-25.24,130.99,73.4,16.11
144,talcahuano,75,CL,1524711600,87,-36.72,-73.12,50.0,11.68
145,constitucion,90,MX,1524710880,13,23.99,-104.67,77.0,9.17
146,porto novo,44,BR,1524711600,93,-23.68,-45.44,66.2,2.24
147,muncar,8,ID,1524712741,89,-8.43,114.34,83.58,3.18
148,iztapa,0,GT,1524712742,80,13.93,-90.71,85.92,5.86
149,las palmas,40,PE,1524711600,100,-6.53,-76.35,73.4,2.17
150,khatanga,20,RU,1524712742,100,71.98,102.47,14.19,4.63
151,lorengau,20,PG,1524712742,100,-2.02,147.27,84.57,3.4
152,lebu,75,ET,1524708000,67,8.96,38.73,60.8,3.51
153,bandarbeyla,92,SO,1524712743,100,9.49,50.81,83.58,6.87
154,comodoro rivadavia,0,AR,1524711600,36,-45.87,-67.48,64.4,6.93
155,dongsheng,92,CN,1524712743,85,29.72,112.52,68.01,4.52
156,friesach,8,AT,1524711000,87,46.95,14.41,51.8,3.36
157,santander,20,PH,1524708000,74,9.42,123.33,87.8,9.17
158,necochea,0,AR,1524712743,97,-38.55,-58.74,61.08,8.43
159,maragogi,92,BR,1524712743,95,-9.01,-35.22,76.11,6.08
160,severo-kurilsk,36,RU,1524712744,93,50.68,156.12,35.88,11.34
161,noumea,92,NC,1524711600,78,-22.28,166.46,77.0,3.36
162,buchanan,40,LR,1524709800,94,5.88,-10.05,78.8,5.97
163,cairns,20,AU,1524711600,37,-16.92,145.77,86.0,10.29
164,ucluelet,20,CA,1524712744,75,48.94,-125.55,58.65,1.72
165,namibe,0,AO,1524712744,100,-15.19,12.15,79.44,3.85
166,umm kaddadah,0,SD,1524712744,19,13.6,26.69,67.02,9.44
167,dalmatovo,24,RU,1524712745,86,56.26,62.94,35.97,6.64
168,malangwa,36,CD,1524712745,100,-2.84,17.57,71.52,2.28
169,pevek,12,RU,1524712745,100,69.7,170.27,17.97,1.95
170,shieli,0,KZ,1524712745,81,44.18,66.74,49.2,4.52
171,punta de bombon,80,PE,1524712745,100,-17.17,-71.79,67.74,4.63
172,sembakung,92,ID,1524712745,81,3.82,117.25,83.49,2.28
173,khandyga,44,RU,1524712746,55,62.65,135.58,34.35,5.97
174,dunedin,0,NZ,1524712618,59,-45.87,170.5,62.79,3.74
175,chokurdakh,8,RU,1524712746,100,70.62,147.9,14.19,7.43
176,thompson,75,CA,1524708000,65,55.74,-97.86,32.0,8.05
177,tuatapere,20,NZ,1524712746,77,-46.13,167.69,62.61,9.33
178,hualmay,64,PE,1524712746,83,-11.1,-77.61,65.76,3.18
179,ongandjera,0,NA,1524712746,52,-17.88,15.07,56.85,3.62
180,slobozia-mandra,12,RO,1524712747,78,43.92,24.7,60.54,2.73
181,nyurba,56,RU,1524712747,45,63.29,118.35,34.71,7.65
182,hami,0,CN,1524712747,28,42.84,93.51,81.6,9.78
183,pacific grove,40,US,1524711300,76,36.62,-121.92,55.4,8.05
184,shemonaikha,80,KZ,1524712747,83,50.63,81.92,44.79,8.55
185,caravelas,88,BR,1524712747,100,-17.73,-39.27,78.63,7.99
186,kharan,24,PK,1524712748,28,28.58,65.42,71.61,5.53
187,sinop,0,TR,1524707400,87,42.03,35.15,48.2,8.21
188,mattawa,90,CA,1524708000,100,46.32,-78.7,33.8,11.41
189,hobyo,44,SO,1524712751,100,5.35,48.53,76.47,7.09
190,mitchell,1,US,1524707580,57,43.71,-98.03,51.8,8.05
191,coihaique,40,CL,1524711900,93,-45.58,-72.07,42.8,2.24
192,umm lajj,0,SA,1524712751,98,25.02,37.27,66.21,6.98
193,te anau,24,NZ,1524712752,76,-45.41,167.72,58.92,7.76
194,vostok,0,RU,1524712752,47,46.45,135.83,63.87,5.86
195,malkapur,0,IN,1524712733,29,20.89,76.2,83.49,7.2
196,vao,80,EE,1524712752,97,59.1,26.19,38.49,5.41
197,coquimbo,90,CL,1524711600,93,-29.95,-71.34,53.6,5.82
198,geraldton,75,CA,1524708000,55,49.72,-86.95,39.2,8.05
199,maceio,40,BR,1524711600,88,-9.67,-35.74,75.2,1.12
200,loandjili,75,CG,1524708000,94,-4.77,11.87,75.2,4.7
201,omboue,92,GA,1524712753,100,-1.57,9.26,82.14,2.39
202,tasiilaq,88,GL,1524711000,92,65.61,-37.64,26.6,1.12
203,bahay,75,PH,1524708000,62,10.01,123.62,87.8,8.05
204,saint-augustin,0,FR,1524711600,93,44.83,-0.61,50.0,2.24
205,salalah,20,OM,1524707400,78,17.01,54.1,80.6,4.7
206,alofi,0,NU,1524708000,65,-19.06,-169.92,82.4,11.41
207,ulaangom,8,MN,1524712754,60,49.98,92.07,58.29,4.97
208,egvekinot,32,RU,1524712754,84,66.32,-179.17,20.67,3.74
209,lasa,0,CY,1524711600,49,34.92,32.53,71.6,6.93
210,koundara,80,GN,1524712754,37,12.49,-13.3,82.95,2.73
211,hasaki,40,JP,1524709800,63,35.73,140.83,68.0,5.82
212,jumla,0,NP,1524712755,67,29.28,82.18,41.28,2.17
213,guano,80,EC,1524712755,96,-1.61,-78.64,46.68,1.95
214,aswan,0,EG,1524712755,55,24.09,32.9,59.37,6.76
215,vaitape,20,PF,1524712755,100,-16.52,-151.75,82.59,8.66
216,minot,1,US,1524707760,38,48.23,-101.3,59.0,21.92
217,sobolevo,92,RU,1524712755,97,54.43,31.9,51.81,18.16
218,brownwood,40,US,1524710100,93,31.71,-98.99,50.0,4.7
219,belmonte,0,PT,1524712756,73,40.36,-7.35,55.23,5.86
220,hanyang,80,CN,1524712756,64,32.14,105.51,64.41,2.51
221,isangel,92,VU,1524712756,100,-19.55,169.27,77.82,15.48
222,sao joao da barra,48,BR,1524712756,97,-21.64,-41.05,78.09,7.99
223,emerald,0,AU,1524712756,35,-23.53,148.16,84.21,9.78
224,samarai,88,PG,1524712756,100,-10.62,150.67,81.87,12.91
225,coihueco,0,CL,1524711600,93,-36.63,-71.83,39.2,6.93
226,yatou,20,CM,1524708000,94,3.63,9.81,73.4,2.17
227,jacobina,88,BR,1524712757,90,-11.19,-40.51,69.54,9.44
228,clyde river,75,CA,1524710820,83,70.47,-68.59,-11.21,4.7
229,tautira,40,PF,1524711600,69,-17.73,-149.15,82.4,8.05
230,kawalu,12,ID,1524712757,82,-7.38,108.21,77.91,2.95
231,basco,1,US,1524711300,66,40.33,-91.2,53.6,3.36
232,oriximina,20,BR,1524712758,97,-1.77,-55.87,76.47,3.96
233,burnie,20,AU,1524712758,100,-41.05,145.91,58.65,20.29
234,kahului,40,US,1524707760,65,20.89,-156.47,80.6,23.04
235,shitanjing,32,CN,1524712758,19,39.23,106.34,69.45,3.62
236,port macquarie,40,AU,1524711600,57,-31.43,152.91,77.0,8.05
237,seymchan,48,RU,1524712758,86,62.93,152.39,28.05,13.8
238,pavino,90,RU,1524709800,86,55.02,82.61,39.2,13.42
239,castro,92,CL,1524712759,99,-42.48,-73.76,53.88,6.98
240,mehamn,75,NO,1524711000,96,71.03,27.85,33.8,57.49
241,ulaanbaatar,0,MN,1524711600,26,47.92,106.92,57.2,4.47
242,uglich,44,RU,1524712759,93,57.53,38.32,37.77,8.66
243,madang,32,PG,1524712760,88,-5.21,145.81,83.49,6.31
244,georgetown,40,GY,1524711600,94,6.8,-58.16,77.0,4.7
245,liwale,0,TZ,1524712760,75,-9.8,37.92,64.59,4.74
246,brandon,1,US,1524712500,70,43.59,-96.57,48.2,8.77
247,nagato,75,JP,1524708000,76,34.35,131.14,59.0,8.05
248,adrar,0,DZ,1524708000,19,27.87,-0.29,66.2,4.7
249,san jose,56,PH,1524712737,70,15.79,120.99,85.83,2.17
250,muros,20,ES,1524711600,93,42.77,-9.06,44.6,11.41
251,kangaatsiaq,64,GL,1524712761,100,68.31,-53.46,17.07,9.33
252,kaeo,56,NZ,1524712762,54,-35.1,173.78,67.11,7.09
253,ixtapa,5,MX,1524710940,69,20.71,-105.21,73.4,2.24
254,ballina,76,IE,1524712779,83,54.11,-9.15,44.97,17.83
255,ambatofinandrahana,12,MG,1524712763,93,-20.55,46.8,44.79,2.73
256,san patricio,0,PY,1524712763,86,-26.98,-56.83,70.62,2.17
257,verkhnevilyuysk,32,RU,1524712763,54,63.45,120.31,33.9,4.97
258,matiri,64,UG,1524712763,97,0.58,30.76,63.87,2.95
259,esperance,20,TT,1524708000,88,10.24,-61.45,77.0,6.53
260,lerwick,88,GB,1524711000,93,60.15,-1.15,42.8,12.75
261,fort nelson,20,CA,1524708000,27,58.81,-122.69,64.4,9.17
262,port blair,0,IN,1524712764,100,11.67,92.75,85.02,4.63
263,ravels,75,BE,1524711840,87,51.37,5.0,48.2,6.93
264,weiser,1,US,1524707580,39,44.25,-116.97,75.2,2.39
265,kassala,0,SD,1524712764,36,15.45,36.38,63.51,2.73
266,biak,92,ID,1524712764,100,-0.91,122.88,72.6,2.51
267,havelock,5,US,1524707880,82,34.88,-76.9,64.4,10.29
268,dolores,0,UY,1524712765,94,-33.53,-58.22,65.58,6.76
269,la macarena,92,CO,1524712765,100,2.18,-73.79,68.64,1.95
270,bambanglipuro,36,ID,1524712765,96,-7.95,110.28,82.23,4.29
271,shetpe,0,KZ,1524712765,49,44.14,52.16,46.41,2.95
272,nanakuli,1,US,1524711420,65,21.39,-158.15,80.6,16.11
273,puebloviejo,75,CO,1524711600,66,10.99,-74.28,86.0,4.7
274,coahuayana,0,MX,1524712766,39,18.62,-100.35,77.55,3.74
275,lixourion,20,GR,1524711000,100,38.2,20.43,53.6,1.83
276,tiksi,44,RU,1524712766,91,71.64,128.87,21.12,10.89
277,zhigansk,8,RU,1524712766,66,66.77,123.37,29.13,5.53
278,luderitz,8,NA,1524712766,90,-26.65,15.16,56.67,4.41
279,kasongo-lunda,0,CD,1524712766,98,-6.48,16.82,66.84,2.06
280,jizan,20,SA,1524708000,70,16.89,42.56,89.6,3.36
281,bereda,32,ES,1524711600,87,43.27,-7.54,48.2,3.36
282,trenggalek,20,ID,1524712767,95,-8.05,111.71,79.35,3.06
283,kaseda,75,JP,1524708000,60,31.42,130.32,68.0,4.7
284,barsovo,75,RU,1524709800,85,61.17,73.17,24.8,11.18
285,redlands,20,US,1524711480,28,34.06,-117.19,73.4,9.17
286,yar-sale,64,RU,1524712768,91,66.83,70.83,20.22,14.47
287,beringovskiy,76,RU,1524712768,100,63.05,179.32,25.89,11.23
288,maues,8,BR,1524712768,95,-3.38,-57.72,75.66,2.62
289,labuhan,44,ID,1524712768,85,-2.54,115.51,81.51,2.73
290,grindavik,75,IS,1524711600,93,63.84,-22.43,37.4,9.17
291,redcliffe,44,GB,1524711360,87,51.45,-2.59,46.4,17.22
292,victoria,75,BN,1524709800,79,5.28,115.24,89.6,3.36
293,yevsino,92,RU,1524712769,100,54.42,83.32,41.64,11.34
294,lagoa,40,PT,1524711600,93,37.14,-8.45,62.6,8.05
295,berdigestyakh,0,RU,1524712769,47,62.1,126.7,31.92,5.97
296,praya,40,ID,1524711600,62,-8.71,116.27,87.8,8.05
297,tygda,0,RU,1524712770,19,53.11,126.33,39.75,12.57
298,vila franca do campo,20,PT,1524711600,87,37.72,-25.43,57.2,4.7
299,mecca,0,SA,1524708000,44,21.43,39.83,80.6,2.62
300,poum,0,MK,1524712770,66,41.28,20.71,46.41,2.73
301,namatanai,56,PG,1524712770,96,-3.66,152.44,85.47,6.42
302,mahebourg,40,MU,1524708000,83,-20.41,57.7,75.2,6.93
303,sunbury,90,US,1524707760,87,40.86,-76.79,59.0,3.36
304,tecoanapa,5,MX,1524710880,83,16.99,-99.26,80.6,2.62
305,sangolqui,75,EC,1524711600,93,-0.33,-78.45,51.8,4.7
306,havre,1,US,1524707580,35,48.55,-109.68,55.4,10.29
307,daru,80,SL,1524712771,94,7.99,-10.85,74.67,3.74
308,leningradskiy,48,RU,1524712771,100,69.38,178.42,11.85,4.74
309,marsa matruh,40,EG,1524708000,88,31.35,27.25,62.6,11.41
310,manzhouli,0,CN,1524712772,31,49.6,117.43,51.9,5.75
311,wattegama,8,LK,1524712772,90,7.35,80.68,78.45,3.74
312,bonthe,44,SL,1524712772,92,7.53,-12.5,79.8,3.96
313,kungurtug,0,RU,1524712772,40,50.6,97.53,61.35,3.62
314,coron,0,FR,1524711600,93,47.13,-0.65,42.8,2.24
315,sola,90,NO,1524711000,93,58.89,5.65,42.8,4.7
316,nouadhibou,0,MR,1524708000,82,20.93,-17.03,64.4,21.92
317,banda aceh,80,ID,1524712752,100,5.56,95.32,77.82,2.62
318,nanortalik,20,GL,1524712773,97,60.14,-45.24,28.59,15.26
319,popondetta,56,PG,1524712773,81,-8.77,148.24,78.54,2.39
320,codrington,0,AU,1524712773,80,-28.95,153.24,73.32,3.85
321,saint-georges,92,CA,1524712773,99,46.12,-70.67,46.14,6.08
322,anito,12,PH,1524712774,97,12.45,125.29,83.94,9.22
323,tula,100,RU,1524712656,96,54.19,37.62,44.61,9.1
324,meulaboh,56,ID,1524712774,100,4.14,96.13,81.15,2.95
325,ahipara,68,NZ,1524712774,73,-35.17,173.16,67.02,2.73
326,havre-saint-pierre,40,CA,1524708000,77,50.23,-63.6,35.6,5.82
327,klaksvik,48,FO,1524711000,100,62.23,-6.59,39.2,11.41
328,kruisfontein,92,ZA,1524712774,84,-34.0,24.73,61.62,11.34
329,firminy,90,FR,1524711600,93,45.39,4.29,53.6,5.75
330,puerto leguizamo,56,CO,1524712775,100,-0.19,-74.78,71.25,2.39
331,port shepstone,0,ZA,1524712775,85,-30.74,30.45,71.07,12.68
332,methoni,0,GR,1524711000,81,36.82,21.7,53.6,15.37
333,solwezi,0,ZM,1524712775,78,-12.18,26.4,50.01,5.53
334,chenzhou,88,CN,1524712775,100,25.81,113.03,66.57,4.63
335,ust-ishim,0,RU,1524712775,84,57.69,71.17,33.09,6.31
336,chegdomyn,88,RU,1524712776,56,51.13,133.04,39.57,7.99
337,taitung,90,TW,1524709800,78,22.76,121.15,73.4,1.12
338,iqaluit,90,CA,1524710220,78,63.75,-68.52,17.6,16.11
339,port hardy,20,CA,1524708000,71,50.7,-127.42,55.4,6.93
340,tarata,36,PE,1524712776,69,-17.47,-70.03,41.1,1.72
341,balakhta,36,RU,1524712776,75,55.38,91.62,52.62,4.18
342,lata,56,IN,1524712777,66,30.78,78.62,57.84,1.72
343,leon,1,US,1524711300,70,40.74,-93.75,51.8,6.93
344,rio gallegos,90,AR,1524711600,93,-51.62,-69.22,46.4,8.05
345,cap malheureux,40,MU,1524708000,83,-19.98,57.61,75.2,6.93
346,ancud,92,CL,1524712777,98,-41.87,-73.83,56.22,11.68
347,carballo,20,ES,1524711600,87,43.21,-8.69,48.2,3.36
348,krasnyy chikoy,20,RU,1524712778,47,50.36,108.75,58.02,3.18
349,turtas,0,RU,1524712778,63,58.94,69.13,31.29,3.74
350,killybegs,92,IE,1524712778,100,54.63,-8.45,44.7,21.97
351,horinchovo,20,UA,1524712778,95,48.27,23.43,55.14,2.17
352,minab,75,IR,1524709800,74,27.15,57.07,80.6,2.39
353,kumburgaz,0,TR,1524711000,72,41.02,28.48,60.8,4.7
354,la ronge,20,CA,1524708000,42,55.1,-105.3,46.4,4.7
355,mana,0,RS,1524711600,93,43.52,20.24,50.0,2.24
356,alexandria,90,US,1524711300,68,31.31,-92.44,71.6,11.41
357,gazanjyk,0,TM,1524712779,89,39.24,55.52,53.61,5.08
358,togur,0,RU,1524712779,95,58.36,82.83,38.31,9.66
359,vanimo,64,PG,1524712779,100,-2.67,141.3,82.14,7.76
360,lang son,88,VN,1524712779,98,21.83,106.73,73.68,3.96
361,san jeronimo,76,PE,1524712780,90,-13.65,-73.37,41.37,2.17
362,dhandhuka,0,IN,1524712780,70,22.38,71.98,79.17,5.75
363,porto walter,8,BR,1524712780,91,-8.27,-72.74,76.47,1.95
364,homer,75,US,1524711180,65,59.64,-151.54,44.6,8.05
365,oktyabrskiy,0,RU,1524709800,93,55.61,37.97,44.6,6.71
366,dhidhdhoo,24,MV,1524712781,100,6.88,73.1,85.11,6.98
367,sorland,75,NO,1524711000,100,67.67,12.69,37.4,2.24
368,auki,0,NG,1524712781,62,12.18,6.51,80.25,11.23
369,hambantota,0,LK,1524712781,100,6.12,81.12,84.3,5.08
370,jalu,0,LY,1524712781,55,29.03,21.55,55.59,2.84
371,northam,92,GB,1524711000,87,51.04,-4.21,46.4,13.87
372,vila velha,75,BR,1524711600,78,-3.71,-38.6,82.4,6.93
373,jackson,90,US,1524710100,82,35.61,-88.82,57.2,6.87
374,ngunguru,44,NZ,1524712782,100,-35.62,174.5,64.23,8.66
375,tomatlan,0,MX,1524712782,79,19.93,-105.25,72.24,2.73
376,north bend,90,US,1524710100,87,43.41,-124.22,51.8,2.17
377,sistranda,75,NO,1524711000,93,63.73,8.83,39.2,9.17
378,christchurch,0,NZ,1524709800,40,-43.53,172.64,71.6,10.29
379,chapais,90,CA,1524708240,92,49.78,-74.86,35.6,3.36
380,neryungri,0,RU,1524712783,40,56.66,124.71,24.09,9.78
381,touros,76,BR,1524712783,98,-5.2,-35.46,77.28,8.55
382,niteroi,40,BR,1524711600,88,-29.95,-51.16,75.2,4.7
383,morehead,1,US,1524711180,87,38.18,-83.43,51.8,4.97
384,manokwari,80,ID,1524712783,100,-0.87,134.08,81.87,9.1
385,grand gaube,40,MU,1524708000,83,-20.01,57.66,75.2,6.93
386,ulladulla,75,AU,1524708000,64,-35.36,150.48,71.6,12.75
387,quelimane,76,MZ,1524712784,85,-17.88,36.89,73.14,6.31
388,sao filipe,24,CV,1524712784,98,14.9,-24.5,70.8,16.71
389,bubaque,8,GW,1524712784,100,11.28,-15.83,78.45,10.78
390,ambulu,12,ID,1524712784,100,-8.35,113.61,82.95,4.07
391,dangriga,20,BZ,1524708000,88,16.97,-88.23,78.8,4.7
392,alekseyevka,75,RU,1524709800,100,53.25,50.49,37.4,8.95
393,ocos,90,GT,1524706920,88,14.51,-92.19,77.0,23.04
394,qaqortoq,48,GL,1524711000,63,60.72,-46.03,30.2,7.43
395,aras,24,YE,1524712785,79,14.28,44.38,47.04,0.38
396,berlevag,75,NO,1524711000,100,70.86,29.09,33.8,57.49
397,majene,64,ID,1524712785,100,-3.54,118.97,77.91,10.33
398,abu samrah,88,SY,1524712786,44,35.3,37.18,61.26,7.43
399,sept-iles,75,CA,1524708000,80,50.2,-66.38,35.6,8.05
400,vershino-shakhtaminskiy,12,RU,1524712786,28,51.3,117.89,48.39,3.62
401,beni mazar,0,EG,1524712786,80,28.5,30.8,56.49,6.64
402,lakes entrance,56,AU,1524712786,78,-37.88,147.99,64.86,10.22
403,taywarah,56,AF,1524712786,65,33.35,64.42,45.78,2.95
404,vardo,90,US,1524711660,67,39.62,-77.74,60.8,18.34
405,limbang,75,BN,1524709800,59,4.75,115.01,89.6,5.82
406,japura,68,ID,1524712787,88,-0.42,102.29,82.77,2.28
407,roma,0,IT,1524709200,58,41.89,12.48,55.4,6.93
408,cherskiy,0,RU,1524712787,68,68.75,161.3,31.2,5.75
409,bull savanna,24,JM,1524712787,92,17.89,-77.59,72.42,0.94
410,edgewater,20,US,1524711360,77,28.99,-80.9,71.6,10.29
411,husavik,64,CA,1524712787,61,50.56,-96.99,45.15,19.28
412,goundam,0,ML,1524712788,30,16.42,-3.66,79.62,13.58
413,evensk,0,RU,1524712788,92,61.92,159.24,31.92,15.14
414,amazar,0,RU,1524712788,34,53.86,120.88,41.55,3.29
415,los llanos de aridane,8,ES,1524711600,68,28.66,-17.92,64.4,12.75
416,baykit,48,RU,1524712788,85,61.68,96.39,38.58,12.57
417,porto nacional,20,BR,1524712788,82,-10.7,-48.41,74.49,2.84
418,tagab,8,AF,1524709500,42,34.85,69.65,62.6,4.7
419,kavaratti,0,IN,1524712789,100,10.57,72.64,85.38,8.88
420,cururupu,44,BR,1524712789,95,-1.82,-44.87,75.84,3.18
421,ischia,90,IT,1524711300,100,46.03,11.25,42.8,14.99
422,vydrino,12,RU,1524712789,74,51.46,104.64,43.08,2.17
423,la crosse,1,US,1524711180,61,43.8,-91.24,50.0,2.84
424,ippy,0,CF,1524712789,85,6.26,21.2,72.51,7.76
425,dauphin,1,CA,1524708000,45,51.15,-100.04,46.4,6.93
426,beterou,32,BJ,1524712790,75,9.2,2.26,78.45,7.31
427,juegang,24,CN,1524712790,80,32.31,121.18,63.15,4.18
428,mahibadhoo,64,MV,1524712790,99,3.78,72.97,85.29,9.89
429,tezu,88,IN,1524712790,66,27.93,96.16,63.69,1.39
430,ponta delgada,20,PT,1524709800,82,37.73,-25.67,57.2,4.7
431,kaohsiung,75,TW,1524709800,78,22.62,120.31,82.4,12.75
432,porto de moz,64,BR,1524712791,91,-1.75,-52.24,77.46,5.3
433,shonguy,75,RU,1524709800,74,68.75,33.15,37.4,4.47
434,yushala,0,RU,1524709800,80,57.08,64.26,32.0,6.71
435,anadyr,90,RU,1524709800,85,64.73,177.51,24.8,13.42
436,strezhevoy,75,RU,1524709800,92,60.73,77.6,30.2,4.47
437,whitehorse,75,CA,1524708000,31,60.72,-135.06,48.2,17.22
438,zaraza,20,VE,1524712791,71,9.35,-65.33,79.62,11.34
439,gouyave,20,GD,1524711600,78,12.16,-61.73,78.8,11.41
440,assiniboia,36,CA,1524712792,46,49.63,-105.99,50.82,10.78
441,faanui,8,PF,1524712792,100,-16.48,-151.75,82.59,9.44
442,tucuman,32,PE,1524712505,80,-17.17,-70.89,56.85,1.72
443,carahue,100,CL,1524712792,93,-38.71,-73.16,54.51,8.55
444,tual,88,ID,1524712792,100,-5.67,132.75,84.39,8.77
445,taoudenni,36,ML,1524712792,39,22.68,-3.98,61.17,3.4
446,kroya,44,ID,1524712792,94,-6.5,108.06,81.69,3.4
447,lappeenranta,90,FI,1524711000,100,61.06,28.19,39.2,2.24
448,chenghai,75,CN,1524708000,69,23.46,116.77,75.2,6.71
449,pisco,0,PE,1524711600,77,-13.71,-76.2,68.0,8.05
450,honiara,20,SB,1524711600,66,-9.43,159.96,87.8,6.93
451,ocampo,76,PH,1524712793,82,13.56,123.37,84.57,5.75
452,vetlanda,68,SE,1524711000,75,57.43,15.09,42.8,9.17
453,kuminskiy,0,RU,1524712780,73,58.67,66.57,31.56,3.51
454,petropavlivka,0,UA,1524712794,70,48.46,36.42,54.33,10.45
455,paracuru,75,BR,1524711600,78,-3.41,-39.03,82.4,6.93
456,axim,0,GH,1524712794,99,4.87,-2.24,81.87,11.12
457,kiunga,80,PG,1524712794,95,-6.12,141.3,78.0,2.73
458,timberlake,1,US,1524711360,72,32.26,-81.31,68.0,6.93
459,magdagachi,0,RU,1524712794,21,53.45,125.8,39.21,11.9
460,ormara,0,PK,1524712795,91,25.21,64.64,80.07,12.01
461,muli,0,IN,1524712795,76,22.62,71.45,80.43,10.56
462,sioux lookout,90,CA,1524708000,49,50.1,-91.92,50.0,3.36
463,cabra,32,ES,1524711600,93,37.47,-4.43,60.8,2.62
464,shingu,75,JP,1524708000,55,33.72,135.99,64.4,11.41
465,kropotkin,0,RU,1524712795,77,45.43,40.58,45.42,2.73
466,young,20,UY,1524712795,93,-32.7,-57.63,66.39,5.97
467,lubango,12,AO,1524712795,83,-14.92,13.49,60.99,0.83
468,cranbrook,40,CA,1524708000,17,49.51,-115.76,64.4,6.93
469,qujing,100,CN,1524712796,94,25.49,103.8,57.39,3.62
470,marion,90,US,1524711360,93,38.35,-97.02,44.6,5.82
471,mungwi,0,ZM,1524712796,71,-10.17,31.37,56.13,5.75
472,panguipulli,90,CL,1524711600,72,-39.64,-72.33,60.8,6.93
473,yerbogachen,100,RU,1524712796,84,61.28,108.01,37.05,6.98
474,mumford,8,GH,1524712797,95,5.26,-0.76,77.91,8.1
475,lavumisa,0,ZA,1524712797,95,-27.31,31.88,55.05,3.06
476,goure,0,NE,1524712797,49,13.98,10.27,72.15,2.39
477,carlyle,90,CA,1524708000,46,49.63,-102.27,53.6,18.34
478,almeirim,0,PT,1524711600,76,39.21,-8.63,57.2,5.82
479,talnakh,64,RU,1524712797,100,69.49,88.39,15.54,4.63
480,mantua,0,IT,1524711300,93,45.16,10.79,59.0,4.7
481,banepa,40,NP,1524711000,68,27.63,85.52,68.0,2.24
482,makokou,88,GA,1524712870,99,0.56,12.85,71.79,2.17
483,santa ana,40,SV,1524711000,88,13.99,-89.56,77.0,6.93
484,perpignan,12,FR,1524711600,67,42.7,2.88,60.8,13.87
485,kodinsk,0,RU,1524712871,60,58.6,99.18,49.74,7.09
486,lagos,20,NG,1524708000,88,6.46,3.39,77.0,4.7
487,oranjemund,56,ZA,1524712871,95,-28.55,16.43,62.43,19.06
488,tamworth,0,AU,1524711600,28,-31.09,150.93,80.6,12.75
489,talara,36,PE,1524712872,83,-4.58,-81.27,69.0,3.18
490,solnechnyy,68,RU,1524712872,59,50.72,136.64,44.52,10.89
491,great falls,40,US,1524707880,61,47.5,-111.29,48.2,5.82
492,casper,1,US,1524711180,27,42.87,-106.31,51.8,14.99
493,hay river,75,CA,1524708000,40,60.82,-115.79,53.6,11.41
494,misratah,44,LY,1524712872,94,32.38,15.09,62.97,12.24
495,japaratuba,20,BR,1524711600,69,-10.59,-36.94,80.6,10.29
496,thaba-tseka,0,LS,1524712873,77,-29.52,28.61,34.98,4.07
497,ambon,24,FR,1524711600,93,47.55,-2.56,44.6,2.24
498,kardla,92,EE,1524711000,100,58.44,26.57,41.0,6.93
499,surt,88,LY,1524712873,94,31.21,16.59,62.79,11.01
500,wynyard,0,CA,1524712873,46,51.77,-104.18,46.32,9.22
501,port hedland,68,AU,1524709800,31,-20.31,118.58,91.4,12.75
502,dawei,8,MM,1524712874,62,14.07,98.19,87.0,2.73
503,muyezerskiy,80,RU,1524712874,96,63.93,31.65,35.43,4.52
504,kargasok,88,RU,1524712874,91,59.06,80.87,36.42,6.64
505,labelle,1,US,1524711180,73,26.76,-81.44,71.6,3.36
506,balkhash,8,KZ,1524712874,97,46.84,74.98,45.24,4.52
507,pandan,20,PH,1524712874,100,11.72,122.09,82.68,11.01
508,suntar,68,RU,1524712874,48,62.16,117.65,34.35,8.55
509,adelaide,20,AU,1524711600,68,-34.93,138.6,66.2,10.29
510,inuvik,90,CA,1524710280,80,68.36,-133.71,39.2,4.7
511,bato,36,PH,1524712875,73,13.36,123.37,86.19,4.74
512,kushiro,75,JP,1524708000,58,43.11,144.15,53.6,11.41
513,bertinoro,0,IT,1524711300,93,44.15,12.13,53.6,8.43
514,mount isa,0,AU,1524709800,23,-20.73,139.49,87.8,11.41
